     2.11           OBSERVATION DATA    G                   RINEX VERSION / TYPE
BLANK OR G = GPS,  R = GLONASS,  E = GALILEO,  M = MIXED    COMMENT             
GNSS-SDR            UNKNOWN USER        18-OCT-21 06:19     PGM / RUN BY / DATE 
GPS OBSERVATION DATA FILE GENERATED BY GNSS-SDR             COMMENT             
GNSS-SDR VERSION 0.0.15.git-next-61d5485e2                  COMMENT             
See https://gnss-sdr.org                                    COMMENT             
DEFAULT MARKER NAME                                         MARKER NAME         
UNKNOWN USER        CTTC                                    OBSERVER / AGENCY   
GNSS-SDR            Software Receiver   0.0.15.gi           REC # / TYPE / VERS 
Antenna number      Antenna type                            ANT # / TYPE        
        0.0000        0.0000        0.0000                  APPROX POSITION XYZ 
        0.0000        0.0000        0.0000                  ANTENNA: DELTA H/E/N
     1     1                                                WAVELENGTH FACT L1/2
     4    C1    L1    D1    S1                              # / TYPES OF OBSERV 
  2013    04    04    06    24   48.1200000     GPS         TIME OF FIRST OBS   
                                                            END OF HEADER       
 13  4  4 06 24 49.0000000  0  5G01G20G11G17G32                                 
  23267434.155 8 122271193.900 8      7206.165 8        48.514                  
  22741878.921 7 119509384.873 7      8472.505 7        43.926                  
  24520327.919 7 128855172.489 7      5611.357 7        45.964                  
  24750555.985 7 130065051.723 7     10075.251 7        45.151                  
  23855112.119 7 125359445.855 7      6582.577 7        46.037                  
 13  4  4 06 24 50.0000000  0  5G01G20G11G17G32                                 
  23266059.169 8 122263984.569 8      7215.895 8        48.058                  
  22740270.691 7 119500909.682 7      8473.128 7        44.178                  
  24519259.691 7 128849563.304 7      5611.932 7        45.721                  
  24748636.923 7 130054979.170 7     10075.318 7        44.807                  
  23853857.642 7 125352861.064 7      6589.417 7        45.871                  
 13  4  4 06 24 51.0000000  0  5G01G20G11G17G32                                 
  23264689.562 7 122256770.745 7      7218.928 7        47.926                  
  22738657.208 7 119492429.949 7      8485.746 7        43.944                  
  24518189.140 7 128843949.524 7      5616.886 7        45.842                  
  24746718.898 7 130044902.278 7     10079.381 7        44.828                  
  23852603.344 7 125346271.579 7      6595.713 7        46.370                  
 13  4  4 06 24 52.0000000  0  5G01G20G11G17G32                                 
  23263315.095 8 122249552.697 8      7222.368 8        48.131                  
  22737042.724 7 119483945.929 7      8488.038 7        44.175                  
  24517121.752 7 128838331.428 7      5622.559 7        46.095                  
  24744799.050 7 130034821.322 7     10081.514 7        44.575                  
  23851349.117 7 125339677.694 7      6597.637 7        45.926                  
 13  4  4 06 24 53.0000000  0  5G01G20G11G17G32                                 
  23261941.431 8 122242327.543 8      7229.624 8        48.122                  
  22735427.239 7 119475454.773 7      8492.187 7        44.240                  
  24516052.952 7 128832706.127 7      5628.271 7        46.032                  
  24742880.703 7 130024733.410 7     10092.198 7        44.135                  
  23850089.547 7 125333076.511 7      6603.685 7        45.976                  
 13  4  4 06 24 54.0000000  0  5G01G20G11G17G32                                 
  23260565.981 7 122235101.537 7      7224.861 7        47.752                  
  22733809.932 7 119466962.696 7      8494.636 7        44.283                  
  24514981.990 7 128827079.890 7      5622.351 7        45.987                  
  24740963.911 7 130014644.799 7     10092.023 7        44.302                  
  23848837.912 7 125326474.306 7      6603.921 7        45.669                  
 13  4  4 06 24 55.0000000  0  5G01G20G11G17G32                                 
  23259188.137 7 122227869.142 7      7234.944 7        47.551                  
  22732196.287 7 119458464.189 7      8499.890 7        44.346                  
  24513907.597 7 128821447.148 7      5637.488 7        45.905                  
  24739043.188 7 130004549.940 7     10097.350 7        44.189                  
  23847579.486 7 125319865.506 7      6617.435 7        45.468                  
 13  4  4 06 24 56.0000000  0  5G01G20G11G17G32                                 
  23257813.026 8 122220632.442 8      7234.626 8        48.108                  
  22730575.370 7 119449961.320 7      8505.992 7        44.629                  
  24512836.867 7 128815810.029 7      5634.126 7        46.190                  
  24737120.874 7 129994450.929 7     10096.977 7        44.608                  
  23846320.953 7 125313252.209 7      6613.227 7        45.515                  
 13  4  4 06 24 57.0000000  0  5G01G20G11G17G32                                 
  23256432.769 8 122213391.704 8      7239.669 8        48.228                  
  22728956.544 7 119441454.362 7      8512.338 7        43.961                  
  24511762.439 7 128810168.774 7      5643.295 7        45.441                  
  24735196.309 7 129984348.024 7     10103.846 7        44.365                  
  23845062.401 7 125306634.697 7      6619.696 7        45.714                  
 13  4  4 06 24 58.0000000  0  5G01G20G11G17G32                                 
  23255054.889 7 122206145.403 7      7244.368 7        47.776                  
  22727337.611 7 119432941.780 7      8514.291 7        44.191                  
  24510688.332 7 128804521.842 7      5647.804 7        45.815                  
  24733275.156 7 129974239.702 7     10108.428 7        44.328                  
  23843800.241 7 125300011.453 7      6623.411 7        45.654                  
 13  4  4 06 24 59.0000000  0  5G01G20G11G17G32                                 
  23253675.204 7 122198892.945 7      7253.248 7        47.815                  
  22725717.605 7 119424423.019 7      8521.979 7        44.022                  
  24509614.135 7 128798868.690 7      5662.639 7        45.616                  
  24731351.485 7 129964125.398 7     10112.972 7        45.464                  
  23842539.867 7 125293381.871 7      6632.953 7        45.879                  
 13  4  4 06 25  0.0000000  0  5G01G20G11G17G32                                 
  23252292.445 8 122191636.345 8      7255.168 8        48.031                  
  22724093.686 7 119415900.046 7      8521.714 7        44.222                  
  24508536.812 7 128793211.293 7      5655.752 7        45.986                  
  24729423.077 7 129954007.093 7     10116.546 7        45.030                  
  23841276.027 7 125286747.939 7      6634.607 7        45.258                  
 13  4  4 06 25  1.0000000  0  5G01G20G11G17G32                                 
  23250911.438 8 122184375.938 8      7262.602 8        48.154                  
  22722473.859 7 119407373.236 7      8528.024 7        44.085                  
  24507460.775 7 128787550.000 7      5664.170 7        45.879                  
  24727497.118 7 129943885.146 7     10125.631 7        44.827                  
  23840014.260 7 125280110.045 7      6638.114 7        45.080                  
 13  4  4 06 25  2.0000000  0  5G01G20G11G17G32                                 
  23249530.948 8 122177111.297 8      7267.932 8        48.073                  
  22720848.868 7 119398842.130 7      8534.889 7        43.955                  
  24506378.663 7 128781884.372 7      5668.923 7        46.101                  
  24725564.762 7 129933759.125 7     10126.694 7        45.162                  
  23838751.974 7 125273467.701 7      6645.275 7        45.696                  
