     2.11           OBSERVATION DATA    G                   RINEX VERSION / TYPE
BLANK OR G = GPS,  R = GLONASS,  E = GALILEO,  M = MIXED    COMMENT             
GNSS-SDR            UNKNOWN USER        16-OCT-21 07:42     PGM / RUN BY / DATE 
GPS OBSERVATION DATA FILE GENERATED BY GNSS-SDR             COMMENT             
GNSS-SDR VERSION 0.0.15.git-next-61d5485e2                  COMMENT             
See https://gnss-sdr.org                                    COMMENT             
DEFAULT MARKER NAME                                         MARKER NAME         
UNKNOWN USER        CTTC                                    OBSERVER / AGENCY   
GNSS-SDR            Software Receiver   0.0.15.gi           REC # / TYPE / VERS 
Antenna number      Antenna type                            ANT # / TYPE        
        0.0000        0.0000        0.0000                  APPROX POSITION XYZ 
        0.0000        0.0000        0.0000                  ANTENNA: DELTA H/E/N
     1     1                                                WAVELENGTH FACT L1/2
     4    C1    L1    D1    S1                              # / TYPES OF OBSERV 
  2013    04    04    06    24   48.1400000     GPS         TIME OF FIRST OBS   
                                                            END OF HEADER       
 13  4  4 06 24 49.0000000  0  4G11G17G32G20                                    
  24520327.919 7 128855176.489 7      5611.357 7        45.960                  
  24750555.985 7 130065041.723 7     10075.251 7        45.151                  
  23855112.137 7 125359449.855 7      6582.578 7        46.037                  
  22741878.921 7 119509386.873 7      8472.505 7        43.925                  
 13  4  4 06 24 50.0000000  0  4G11G17G32G20                                    
  24519259.709 7 128849567.304 7      5611.932 7        45.723                  
  24748636.923 7 130054969.170 7     10075.319 7        44.804                  
  23853857.695 7 125352865.064 7      6589.424 7        45.870                  
  22740270.620 7 119500911.682 7      8473.140 7        44.181                  
 13  4  4 06 24 51.0000000  0  4G11G17G32G20                                    
  24518189.140 7 128843953.524 7      5616.886 7        45.842                  
  24746718.916 7 130044892.278 7     10079.381 7        44.827                  
  23852603.344 7 125346275.579 7      6595.713 7        46.369                  
  22738657.208 7 119492431.949 7      8485.748 7        43.943                  
 13  4  4 06 24 52.0000000  0  4G11G17G32G20                                    
  24517121.752 7 128838335.428 7      5622.559 7        46.099                  
  24744799.050 7 130034811.321 7     10081.516 7        44.575                  
  23851349.117 7 125339681.694 7      6597.637 7        45.927                  
  22737042.742 7 119483947.929 7      8488.038 7        44.175                  
 13  4  4 06 24 53.0000000  0  4G11G17G32G20                                    
  24516052.952 7 128832710.127 7      5628.269 7        46.040                  
  24742880.685 7 130024723.409 7     10092.180 7        44.136                  
  23850089.547 7 125333080.511 7      6603.685 7        45.977                  
  22735427.257 7 119475456.772 7      8492.187 7        44.241                  
 13  4  4 06 24 54.0000000  0  4G11G17G32G20                                    
  24514981.990 7 128827083.890 7      5622.351 7        45.987                  
  24740963.911 7 130014634.798 7     10092.012 7        44.302                  
  23848837.912 7 125326478.306 7      6603.891 7        45.670                  
  22733809.932 7 119466964.695 7      8494.635 7        44.285                  
 13  4  4 06 24 55.0000000  0  4G11G17G32G20                                    
  24513907.597 7 128821451.148 7      5637.506 7        45.905                  
  24739043.188 7 130004539.940 7     10097.350 7        44.188                  
  23847579.468 7 125319869.506 7      6617.435 7        45.470                  
  22732196.287 7 119458466.189 7      8499.890 7        44.348                  
 13  4  4 06 24 56.0000000  0  4G11G17G32G20                                    
  24512836.867 7 128815814.029 7      5634.119 7        46.189                  
  24737120.874 7 129994440.929 7     10096.980 7        44.604                  
  23846320.953 7 125313256.209 7      6613.227 7        45.516                  
  22730575.352 7 119449963.320 7      8505.972 7        44.629                  
 13  4  4 06 24 57.0000000  0  4G11G17G32G20                                    
  24511762.439 7 128810172.774 7      5643.294 7        45.445                  
  24735196.309 7 129984338.023 7     10103.849 7        44.367                  
  23845062.401 7 125306638.697 7      6619.697 7        45.715                  
  22728956.526 7 119441456.361 7      8512.339 7        43.963                  
 13  4  4 06 24 58.0000000  0  4G11G17G32G20                                    
  24510688.349 7 128804525.842 7      5647.806 7        45.815                  
  24733275.156 7 129974229.701 7     10108.431 7        44.330                  
  23843800.259 7 125300015.453 7      6623.420 7        45.657                  
  22727337.593 7 119432943.780 7      8514.291 7        44.193                  
 13  4  4 06 24 59.0000000  0  4G11G17G32G20                                    
  24509614.135 7 128798872.690 7      5662.638 7        45.610                  
  24731351.449 7 129964115.397 7     10112.973 7        45.466                  
  23842539.867 7 125293385.871 7      6632.954 7        45.879                  
  22725717.605 7 119424425.018 7      8521.978 7        44.025                  
 13  4  4 06 25  0.0000000  0  4G11G17G32G20                                    
  24508536.740 7 128793215.293 7      5655.757 7        45.988                  
  24729423.077 7 129953997.092 7     10116.546 7        45.030                  
  23841276.045 7 125286751.939 7      6634.602 7        45.251                  
  22724093.668 7 119415902.046 7      8521.732 7        44.221                  
 13  4  4 06 25  1.0000000  0  4G11G17G32G20                                    
  24507460.775 7 128787554.000 7      5664.156 7        45.873                  
  24727497.118 7 129943875.145 7     10125.631 7        44.827                  
  23840014.260 7 125280114.045 7      6638.114 7        45.082                  
  22722473.859 7 119407375.236 7      8528.024 7        44.085                  
 13  4  4 06 25  2.0000000  0  4G11G17G32G20                                    
  24506378.663 7 128781888.371 7      5668.923 7        46.100                  
  24725564.762 7 129933749.125 7     10126.694 7        45.165                  
  23838751.992 7 125273471.701 7      6645.181 7        45.697                  
  22720848.850 7 119398844.129 7      8534.889 7        43.955                  
