     2.11           OBSERVATION DATA    G                   RINEX VERSION / TYPE
BLANK OR G = GPS,  R = GLONASS,  E = GALILEO,  M = MIXED    COMMENT             
GNSS-SDR            UNKNOWN USER        26-OCT-21 07:59     PGM / RUN BY / DATE 
GPS OBSERVATION DATA FILE GENERATED BY GNSS-SDR             COMMENT             
GNSS-SDR VERSION 0.0.15.git-next-61d5485e2                  COMMENT             
See https://gnss-sdr.org                                    COMMENT             
DEFAULT MARKER NAME                                         MARKER NAME         
UNKNOWN USER        CTTC                                    OBSERVER / AGENCY   
GNSS-SDR            Software Receiver   0.0.15.gi           REC # / TYPE / VERS 
Antenna number      Antenna type                            ANT # / TYPE        
        0.0000        0.0000        0.0000                  APPROX POSITION XYZ 
        0.0000        0.0000        0.0000                  ANTENNA: DELTA H/E/N
     1     1                                                WAVELENGTH FACT L1/2
     4    C1    L1    D1    S1                              # / TYPES OF OBSERV 
  2013    04    04    06    24   12.1600000     GPS         TIME OF FIRST OBS   
                                                            END OF HEADER       
 13  4  4 06 24 13.0000000  0  4G01G32G17G20                                    
  23316136.963 8 122527130.894 8      7003.015 8        49.309                  
  23899516.444 7 125592806.928 7      6376.262 7        47.252                  
  24818892.668 7 130424160.978 7      9872.626 7        45.212                  
  22799254.978 7 119810896.956 7      8267.298 7        44.339                  
 13  4  4 06 24 14.0000000  0  4G01G32G17G20                                    
  23314804.488 8 122520123.176 8      7013.420 8        48.482                  
  23898302.316 7 125586430.369 7      6384.440 7        46.432                  
  24817013.847 7 130414284.626 7      9881.045 7        44.875                  
  22797680.538 7 119802625.157 7      8272.420 7        44.128                  
 13  4  4 06 24 15.0000000  0  4G01G32G17G20                                    
  23313466.402 8 122513106.995 8      7015.527 8        48.905                  
  23897088.330 7 125580045.166 7      6392.384 7        46.474                  
  24815136.421 7 130404399.967 7      9882.276 7        45.501                  
  22796103.758 7 119794344.831 7      8281.227 7        44.574                  
 13  4  4 06 24 16.0000000  0  4G01G32G17G20                                    
  23312135.588 8 122506086.034 8      7026.117 8        48.980                  
  23895869.394 7 125573655.003 7      6392.211 7        47.018                  
  24813253.794 7 130394510.670 7      9890.365 7        44.991                  
  22794525.476 7 119786059.687 7      8286.015 7        44.458                  
 13  4  4 06 24 17.0000000  0  4G01G32G17G20                                    
  23310799.468 8 122499057.471 8      7035.419 8        48.637                  
  23894652.871 7 125567257.035 7      6405.652 7        46.880                  
  24811370.631 7 130384613.931 7      9908.593 7        45.470                  
  22792950.000 7 119777766.893 7      8301.840 7        44.410                  
 13  4  4 06 24 18.0000000  0  4G01G32G17G20                                    
  23309457.647 8 122492020.940 8      7039.741 8        48.329                  
  23893431.327 7 125560850.909 7      6409.240 7        46.599                  
  24809484.699 7 130374709.368 7      9902.664 7        45.881                  
  22791369.825 7 119769466.083 7      8309.019 7        44.165                  
 13  4  4 06 24 19.0000000  0  4G01G32G17G20                                    
  23308117.095 8 122484980.271 8      7044.846 8        48.043                  
  23892212.606 7 125554440.507 7      6416.702 7        46.614                  
  24807599.356 7 130364800.822 7      9912.562 7        45.440                  
  22789789.524 7 119761161.102 7      8310.269 7        44.258                  
 13  4  4 06 24 20.0000000  0  4G01G32G17G20                                    
  23306777.615 8 122477933.026 8      7051.444 8        48.401                  
  23890991.187 7 125548023.305 7      6423.727 7        46.418                  
  24805715.336 7 130354885.843 7      9922.271 7        45.236                  
  22788209.152 7 119752849.465 7      8313.720 7        44.319                  
 13  4  4 06 24 21.0000000  0  4G01G32G17G20                                    
  23305436.402 8 122470880.434 8      7054.830 8        48.477                  
  23889770.929 7 125541600.584 7      6426.322 7        46.301                  
  24803828.099 7 130344965.660 7      9921.679 7        45.346                  
  22786626.796 7 119744532.447 7      8315.498 7        44.532                  
 13  4  4 06 24 22.0000000  0  4G01G32G17G20                                    
  23304092.884 8 122463822.908 8      7056.974 8        48.405                  
  23888549.188 7 125535172.743 7      6430.933 7        46.263                  
  24801934.232 7 130335040.703 7      9929.949 7        45.322                  
  22785044.298 7 119736210.433 7      8328.130 7        44.129                  
 13  4  4 06 24 23.0000000  0  4G01G32G17G20                                    
  23302748.312 8 122456759.924 8      7068.362 8        48.413                  
  23887326.000 7 125528739.264 7      6438.138 7        46.761                  
  24800045.691 7 130325110.430 7      9936.103 7        45.441                  
  22783459.048 7 119727882.938 7      8329.753 7        44.274                  
 13  4  4 06 24 24.0000000  0  4G01G32G17G20                                    
  23301403.364 7 122449690.888 7      7074.674 7        47.932                  
  23886097.737 7 125522299.562 7      6444.151 7        46.486                  
  24798154.380 7 130315174.263 7      9938.805 7        45.071                  
  22781872.957 7 119719549.325 7      8331.066 7        44.039                  
 13  4  4 06 24 25.0000000  0  4G01G32G17G20                                    
  23300055.486 8 122442615.232 8      7081.850 8        48.113                  
  23884871.279 7 125515853.033 7      6449.993 7        46.583                  
  24796264.552 7 130305231.632 7      9952.590 7        45.676                  
  22780283.561 7 119711209.049 7      8343.054 7        43.627                  
 13  4  4 06 24 26.0000000  0  4G01G32G17G20                                    
  23298707.589 8 122435533.021 8      7086.524 8        48.345                  
  23883644.392 7 125509399.790 7      6454.599 7        46.638                  
  24794368.828 7 130295282.586 7      9952.129 7        45.511                  
  22778693.826 7 119702862.159 7      8350.874 7        44.151                  
 13  4  4 06 24 27.0000000  0  4G01G32G17G20                                    
  23297360.587 8 122428444.546 8      7093.002 8        48.095                  
  23882413.127 7 125502940.083 7      6463.114 7        46.197                  
  24792474.425 7 130285327.435 7      9956.635 7        45.367                  
  22777105.341 7 119694508.965 7      8358.737 7        44.065                  
 13  4  4 06 24 28.0000000  0  4G01G32G17G20                                    
  23296009.867 8 122421351.229 8      7095.415 8        48.145                  
  23881183.952 7 125496475.367 7      6462.037 7        46.246                  
  24790580.023 7 130275367.589 7      9960.594 7        45.440                  
  22775516.392 7 119686150.890 7      8360.204 7        44.462                  
 13  4  4 06 24 29.0000000  0  4G01G32G17G20                                    
  23294656.700 8 122414251.796 8      7104.018 8        48.452                  
  23879953.223 7 125490004.338 7      6472.792 7        46.247                  
  24788683.905 7 130265401.765 7      9967.400 7        45.614                  
  22773927.264 7 119677786.629 7      8364.402 7        44.539                  
 13  4  4 06 24 30.0000000  0  4G01G32G17G20                                    
  23293307.106 8 122407147.087 8      7106.324 8        48.315                  
  23878720.904 7 125483527.857 7      6481.336 7        45.992                  
  24786784.785 7 130255430.829 7      9971.140 7        45.299                  
  22772334.544 7 119669417.059 7      8371.026 7        44.383                  
 13  4  4 06 24 31.0000000  0  4G01G32G17G20                                    
  23291951.473 7 122400037.964 7      7111.605 7        47.636                  
  23877488.424 7 125477046.769 7      6483.456 7        45.990                  
  24784892.206 7 130245455.622 7      9976.905 7        45.381                  
  22770740.270 7 119661043.001 7      8378.745 7        44.250                  
 13  4  4 06 24 32.0000000  0  4G01G32G17G20                                    
  23290597.573 7 122392923.785 7      7118.741 7        47.878                  
  23876253.782 7 125470560.442 7      6487.084 7        46.472                  
  24782992.032 7 130235475.499 7      9985.002 7        45.249                  
  22769144.924 7 119652663.859 7      8382.404 7        44.001                  
 13  4  4 06 24 33.0000000  0  4G01G32G17G20                                    
  23289245.370 8 122385802.848 8      7119.561 8        48.074                  
  23875018.264 7 125464067.185 7      6492.136 7        46.494                  
  24781087.212 7 130225488.771 7      9987.285 7        45.558                  
  22767546.361 7 119644277.903 7      8383.131 7        44.217                  
 13  4  4 06 24 34.0000000  0  4G01G32G17G20                                    
  23287889.254 8 122378678.752 8      7129.439 8        48.341                  
  23873780.334 7 125457570.556 7      6500.693 7        46.677                  
  24779182.588 7 130215499.042 7      9993.029 7        45.610                  
  22765954.839 7 119635888.733 7      8389.684 7        44.426                  
 13  4  4 06 24 35.0000000  0  4G01G32G17G20                                    
  23286533.513 8 122371548.713 8      7137.529 8        48.020                  
  23872541.528 7 125451067.810 7      6509.343 7        46.436                  
  24777294.244 7 130205503.518 7     10002.098 7        46.075                  
  22764355.579 7 119627493.574 7      8396.917 7        44.507                  
 13  4  4 06 24 36.0000000  0  4G01G32G17G20                                    
  23285173.306 8 122364413.639 8      7137.494 8        48.179                  
  23871305.510 7 125444559.854 7      6511.759 7        45.793                  
  24775384.581 7 130195503.090 7     10004.030 7        46.051                  
  22762755.265 7 119619093.329 7      8405.753 7        44.544                  
 13  4  4 06 24 37.0000000  0  4G01G32G17G20                                    
  23283816.618 8 122357272.758 8      7144.095 8        48.130                  
  23870066.668 7 125438045.906 7      6516.851 7        46.102                  
  24773478.296 7 130185497.033 7     10009.651 7        46.077                  
  22761159.240 7 119610687.225 7      8413.523 7        44.323                  
 13  4  4 06 24 38.0000000  0  4G01G32G17G20                                    
  23282456.053 7 122350126.206 7      7149.546 7        47.816                  
  23868822.681 7 125431526.102 7      6518.530 7        46.075                  
  24771574.870 7 130175485.431 7     10019.536 7        45.511                  
  22759556.978 7 119602275.412 7      8414.973 7        43.936                  
 13  4  4 06 24 39.0000000  0  4G01G32G17G20                                    
  23281097.149 8 122342975.861 8      7150.700 8        48.358                  
  23867583.267 7 125425002.328 7      6520.075 7        46.107                  
  24769671.479 7 130165470.210 7     10018.568 7        45.608                  
  22757957.325 7 119593859.761 7      8415.884 7        43.930                  
 13  4  4 06 24 40.0000000  0  4G01G32G17G20                                    
  23279734.851 8 122335820.966 8      7158.197 8        48.290                  
  23866342.567 7 125418473.807 7      6528.163 7        46.381                  
  24767764.604 7 130155450.596 7     10023.822 7        45.915                  
  22756353.169 7 119585439.497 7      8422.624 7        44.138                  
 13  4  4 06 24 41.0000000  0  4G01G32G17G20                                    
  23278371.355 8 122328659.309 8      7167.029 8        48.040                  
  23865096.953 7 125411938.350 7      6538.657 7        46.426                  
  24765853.048 7 130145424.366 7     10027.205 7        45.119                  
  22754748.942 7 119577012.425 7      8429.107 7        44.408                  
 13  4  4 06 24 42.0000000  0  4G01G32G17G20                                    
  23277008.002 8 122321493.522 8      7168.703 8        48.276                  
  23863851.822 7 125405398.573 7      6546.544 7        46.132                  
  24763946.244 7 130135394.130 7     10027.723 7        45.055                  
  22753143.321 7 119568581.175 7      8430.375 7        44.602                  
 13  4  4 06 24 43.0000000  0  4G01G32G17G20                                    
  23275643.166 8 122314318.985 8      7173.319 8        48.109                  
  23862607.245 7 125398849.852 7      6551.913 7        46.090                  
  24762037.368 7 130125355.292 7     10041.344 7        45.404                  
  22751539.415 7 119560141.115 7      8442.894 7        43.755                  
 13  4  4 06 24 44.0000000  0  4G01G32G17G20                                    
  23274276.364 7 122307141.644 7      7178.854 7        47.988                  
  23861358.361 7 125392298.166 7      6558.517 7        46.209                  
  24760124.185 7 130115313.844 7     10042.869 7        45.118                  
  22749931.596 7 119551698.212 7      8443.763 7        44.471                  
 13  4  4 06 24 45.0000000  0  4G01G32G17G20                                    
  23272909.599 7 122299960.319 7      7188.351 7        47.892                  
  23860111.728 7 125385742.298 7      6559.104 7        46.218                  
  24758210.395 7 130105268.533 7     10048.806 7        44.908                  
  22748323.617 7 119543251.264 7      8453.816 7        43.635                  
 13  4  4 06 24 46.0000000  0  4G01G32G17G20                                    
  23271543.869 8 122292771.307 8      7190.110 8        48.336                  
  23858865.257 7 125379178.534 7      6564.812 7        46.034                  
  24756300.232 7 130095215.691 7     10059.861 7        45.168                  
  22746715.011 7 119534796.589 7      8451.073 7        43.983                  
 13  4  4 06 24 47.0000000  0  4G01G32G17G20                                    
  23270173.136 8 122285579.721 8      7195.008 8        48.423                  
  23857613.764 7 125372612.057 7      6572.209 7        45.915                  
  24754384.727 7 130085160.443 7     10057.703 7        44.779                  
  22745103.779 7 119526339.282 7      8460.327 7        44.027                  
 13  4  4 06 24 48.0000000  0  5G01G32G11G17G20                                 
  23268803.905 8 122278380.546 8      7202.442 8        48.150                  
  23856362.396 7 125366037.781 7      6573.466 7        46.366                  
  24521392.913 7 128860793.919 7      5598.229 7        45.654                  
  24752467.988 7 130075097.743 7     10067.525 7        44.681                  
  22743493.709 7 119517874.335 7      8468.863 7        44.191                  
 13  4  4 06 24 49.0000000  0  5G01G32G11G17G20                                 
  23267434.173 8 122271176.900 8      7206.172 8        48.514                  
  23855112.119 7 125359458.855 7      6582.577 7        46.037                  
  24520327.919 7 128855190.489 7      5611.357 7        45.960                  
  24750555.985 7 130065030.723 7     10075.251 7        45.151                  
  22741878.975 7 119509404.872 7      8472.488 7        43.926                  
 13  4  4 06 24 50.0000000  0  5G01G32G11G17G20                                 
  23266059.169 8 122263967.569 8      7215.895 8        48.057                  
  23853857.713 7 125352874.064 7      6589.442 7        45.868                  
  24519259.709 7 128849581.304 7      5611.932 7        45.722                  
  24748636.887 7 130054958.170 7     10075.324 7        44.802                  
  22740270.691 7 119500929.682 7      8473.128 7        44.177                  
 13  4  4 06 24 51.0000000  0  5G01G32G11G17G20                                 
  23264689.562 7 122256753.746 7      7218.928 7        47.922                  
  23852603.344 7 125346284.579 7      6595.713 7        46.369                  
  24518189.140 7 128843967.524 7      5616.888 7        45.844                  
  24746718.898 7 130044881.278 7     10079.381 7        44.827                  
  22738657.208 7 119492449.949 7      8485.746 7        43.942                  
 13  4  4 06 24 52.0000000  0  5G01G32G11G17G20                                 
  23263315.095 8 122249535.697 8      7222.368 8        48.129                  
  23851349.117 7 125339690.694 7      6597.637 7        45.924                  
  24517121.752 7 128838349.428 7      5622.559 7        46.096                  
  24744799.050 7 130034800.321 7     10081.514 7        44.574                  
  22737042.742 7 119483965.929 7      8488.037 7        44.174                  
 13  4  4 06 24 53.0000000  0  5G01G32G11G17G20                                 
  23261941.431 8 122242310.543 8      7229.624 8        48.124                  
  23850089.547 7 125333089.511 7      6603.685 7        45.974                  
  24516052.952 7 128832724.127 7      5628.271 7        46.030                  
  24742880.703 7 130024712.409 7     10092.198 7        44.136                  
  22735427.257 7 119475474.772 7      8492.187 7        44.239                  
 13  4  4 06 24 54.0000000  0  5G01G32G11G17G20                                 
  23260565.999 7 122235084.537 7      7224.853 7        47.749                  
  23848837.929 7 125326487.306 7      6603.899 7        45.669                  
  24514981.990 7 128827097.890 7      5622.351 7        45.987                  
  24740963.911 7 130014623.798 7     10092.012 7        44.300                  
  22733809.932 7 119466982.695 7      8494.636 7        44.286                  
 13  4  4 06 24 55.0000000  0  5G01G32G11G17G20                                 
  23259188.137 7 122227852.142 7      7234.944 7        47.550                  
  23847579.486 7 125319878.506 7      6617.435 7        45.467                  
  24513907.597 7 128821465.148 7      5637.488 7        45.905                  
  24739043.205 7 130004528.939 7     10097.503 7        44.185                  
  22732196.287 7 119458484.189 7      8499.890 7        44.348                  
 13  4  4 06 24 56.0000000  0  5G01G32G11G17G20                                 
  23257813.026 8 122220615.442 8      7234.627 8        48.108                  
  23846320.935 7 125313265.209 7      6613.218 7        45.510                  
  24512836.867 7 128815828.029 7      5634.126 7        46.190                  
  24737120.856 7 129994429.929 7     10096.980 7        44.604                  
  22730575.352 7 119449981.320 7      8505.971 7        44.628                  
 13  4  4 06 24 57.0000000  0  5G01G32G11G17G20                                 
  23256432.787 8 122213374.704 8      7239.668 8        48.226                  
  23845062.401 7 125306647.698 7      6619.697 7        45.715                  
  24511762.439 7 128810186.774 7      5643.295 7        45.441                  
  24735196.309 7 129984327.023 7     10103.845 7        44.366                  
  22728956.562 7 119441474.362 7      8512.346 7        43.964                  
 13  4  4 06 24 58.0000000  0  5G01G32G11G17G20                                 
  23255054.907 7 122206128.403 7      7244.370 7        47.777                  
  23843800.241 7 125300024.453 7      6623.410 7        45.656                  
  24510688.332 7 128804539.842 7      5647.804 7        45.815                  
  24733275.156 7 129974218.701 7     10108.430 7        44.333                  
  22727337.611 7 119432961.780 7      8514.291 7        44.193                  
 13  4  4 06 24 59.0000000  0  5G01G32G11G17G20                                 
  23253675.204 7 122198875.945 7      7253.261 7        47.815                  
  23842539.867 7 125293394.871 7      6632.954 7        45.879                  
  24509614.135 7 128798886.690 7      5662.639 7        45.616                  
  24731351.467 7 129964104.397 7     10112.973 7        45.465                  
  22725717.605 7 119424443.018 7      8521.978 7        44.024                  
 13  4  4 06 25  0.0000000  0  5G01G32G11G17G20                                 
  23252292.427 8 122191619.345 8      7255.168 8        48.036                  
  23841276.009 7 125286760.939 7      6634.607 7        45.263                  
  24508536.812 7 128793229.293 7      5655.752 7        45.987                  
  24729423.077 7 129953986.092 7     10116.546 7        45.030                  
  22724093.686 7 119415920.046 7      8521.714 7        44.223                  
 13  4  4 06 25  1.0000000  0  5G01G32G11G17G20                                 
  23250911.473 8 122184358.938 8      7262.580 8        48.157                  
  23840014.260 7 125280123.045 7      6638.114 7        45.084                  
  24507460.775 7 128787568.000 7      5664.156 7        45.874                  
  24727497.118 7 129943864.145 7     10125.631 7        44.829                  
  22722473.877 7 119407393.236 7      8528.026 7        44.087                  
 13  4  4 06 25  2.0000000  0  5G01G32G11G17G20                                 
  23249530.948 8 122177094.298 8      7267.932 8        48.077                  
  23838752.010 7 125273480.701 7      6645.187 7        45.698                  
  24506378.663 7 128781902.371 7      5668.924 7        46.100                  
  24725564.780 7 129933738.125 7     10126.695 7        45.161                  
  22720848.868 7 119398862.129 7      8534.889 7        43.955                  
